[
 {
   "id": 1,
   "name": "John Smith",
   "street_address": "123 Main St",
   "city": "New York",
   "state": "NY",
   "postal_code": 10001,
   "latitude": 40.7128,
   "longitude": -74.006,
   "legal": true,
   "youth": true,
   "adult": false,
   "housing": true
 },
 {
   "id": 2,
   "name": "Jane Doe",
   "street_address": "456 Elm St",
   "city": "Los Angeles",
   "state": "CA",
   "postal_code": 90001,
   "latitude": 34.0522,
   "longitude": -118.2437,
   "legal": false,
   "youth": true,
   "adult": false,
   "housing": true
 },
 {
   "id": 3,
   "name": "Michael Johnson",
   "street_address": "789 Oak Ave",
   "city": "Chicago",
   "state": "IL",
   "postal_code": 60601,
   "latitude": 41.8781,
   "longitude": -87.6298,
   "legal": true,
   "youth": false,
   "adult": true,
   "housing": false
 },
 {
   "id": 4,
   "name": "Sarah Davis",
   "street_address": "321 Pine St",
   "city": "Houston",
   "state": "TX",
   "postal_code": 77001,
   "latitude": 29.7604,
   "longitude": -95.3698,
   "legal": true,
   "youth": true,
   "adult": false,
   "housing": true
 },
 {
   "id": 5,
   "name": "Robert Wilson",
   "street_address": "555 Maple Ave",
   "city": "Miami",
   "state": "FL",
   "postal_code": 33101,
   "latitude": 25.7617,
   "longitude": -80.1918,
   "legal": false,
   "youth": false,
   "adult": true,
   "housing": true
 },
 {
   "id": 6,
   "name": "Emily Taylor",
   "street_address": "777 Cedar St",
   "city": "Phoenix",
   "state": "AZ",
   "postal_code": 85001,
   "latitude": 33.4484,
   "longitude": -112.074,
   "legal": true,
   "youth": true,
   "adult": false,
   "housing": true
 },
 {
   "id": 7,
   "name": "David Anderson",
   "street_address": "999 Birch Ave",
   "city": "Philadelphia",
   "state": "PA",
   "postal_code": 19101,
   "latitude": 39.9526,
   "longitude": -75.1652,
   "legal": false,
   "youth": true,
   "adult": true,
   "housing": true
 },
 {
   "id": 8,
   "name": "Jessica Martinez",
   "street_address": "222 Walnut St",
   "city": "San Antonio",
   "state": "TX",
   "postal_code": 78201,
   "latitude": 29.4241,
   "longitude": -98.4936,
   "legal": true,
   "youth": false,
   "adult": true,
   "housing": false
 },
 {
   "id": 9,
   "name": "Christopher Brown",
   "street_address": "444 Pineapple Rd",
   "city": "San Diego",
   "state": "CA",
   "postal_code": 92101,
   "latitude": 32.7157,
   "longitude": -117.1611,
   "legal": false,
   "youth": true,
   "adult": false,
   "housing": true
 },
 {
   "id": 10,
   "name": "Amanda Wilson",
   "street_address": "888 Orange Blvd",
   "city": "Dallas",
   "state": "TX",
   "postal_code": 75201,
   "latitude": 32.7767,
   "longitude": -96.797,
   "legal": true,
   "youth": true,
   "adult": false,
   "housing": true
 },
 {
   "id": 11,
   "name": "James Thompson",
   "street_address": "111 Cherry Ln",
   "city": "San Jose",
   "state": "CA",
   "postal_code": 95101,
   "latitude": 37.3382,
   "longitude": -121.8863,
   "legal": true,
   "youth": true,
   "adult": false,
   "housing": true
 },
 {
   "id": 12,
   "name": "Megan Clark",
   "street_address": "555 Lemon Ave",
   "city": "Austin",
   "state": "TX",
   "postal_code": 78701,
   "latitude": 30.2672,
   "longitude": -97.7431,
   "legal": false,
   "youth": true,
   "adult": false,
   "housing": true
 },
 {
   "id": 13,
   "name": "William Green",
   "street_address": "777 Grape St",
   "city": "Indianapolis",
   "state": "IN",
   "postal_code": 46201,
   "latitude": 39.7684,
   "longitude": -86.1581,
   "legal": true,
   "youth": false,
   "adult": true,
   "housing": false
 },
 {
   "id": 14,
   "name": "Alexis Rodriguez",
   "street_address": "999 Peachtree St",
   "city": "Jacksonville",
   "state": "FL",
   "postal_code": 32099,
   "latitude": 30.3322,
   "longitude": -81.6557,
   "legal": false,
   "youth": true,
   "adult": false,
   "housing": true
 },
 {
   "id": 15,
   "name": "Samantha White",
   "street_address": "222 Blueberry Ln",
   "city": "San Francisco",
   "state": "CA",
   "postal_code": 94101,
   "latitude": 37.7749,
   "longitude": -122.4194,
   "legal": true,
   "youth": true,
   "adult": false,
   "housing": true
 },
 {
   "id": 16,
   "name": "Matthew Turner",
   "street_address": "444 Raspberry Rd",
   "city": "Columbus",
   "state": "OH",
   "postal_code": 43085,
   "latitude": 39.9612,
   "longitude": -82.9988,
   "legal": true,
   "youth": true,
   "adult": false,
   "housing": true
 },
 {
   "id": 17,
   "name": "Olivia Hill",
   "street_address": "888 Strawberry Ave",
   "city": "Charlotte",
   "state": "NC",
   "postal_code": 28201,
   "latitude": 35.2271,
   "longitude": -80.8431,
   "legal": false,
   "youth": true,
   "adult": false,
   "housing": true
 },
 {
   "id": 18,
   "name": "Ethan Scott",
   "street_address": "111 Blackberry Blvd",
   "city": "Fort Worth",
   "state": "TX",
   "postal_code": 76101,
   "latitude": 32.7555,
   "longitude": -97.3308,
   "legal": true,
   "youth": false,
   "adult": true,
   "housing": false
 },
 {
   "id": 19,
   "name": "Natalie Lee",
   "street_address": "555 Raspberry Ln",
   "city": "Detroit",
   "state": "MI",
   "postal_code": 48201,
   "latitude": 42.3314,
   "longitude": -83.0458,
   "legal": true,
   "youth": true,
   "adult": false,
   "housing": true
 },
 {
   "id": 20,
   "name": "Andrew Young",
   "street_address": "777 Blueberry St",
   "city": "Memphis",
   "state": "TN",
   "postal_code": 37501,
   "latitude": 35.1495,
   "longitude": -90.049,
   "legal": false,
   "youth": true,
   "adult": false,
   "housing": true
 },
 {
   "id": 21,
   "name": "Grace Hernandez",
   "street_address": "999 Plum Rd",
   "city": "Seattle",
   "state": "WA",
   "postal_code": 98101,
   "latitude": 47.6062,
   "longitude": -122.3321,
   "legal": true,
   "youth": false,
   "adult": true,
   "housing": false
 },
 {
   "id": 22,
   "name": "Benjamin King",
   "street_address": "222 Apple Blvd",
   "city": "Denver",
   "state": "CO",
   "postal_code": 80201,
   "latitude": 39.7392,
   "longitude": -104.9903,
   "legal": false,
   "youth": true,
   "adult": false,
   "housing": true
 },
 {
   "id": 23,
   "name": "Lily Hall",
   "street_address": "444 Orange St",
   "city": "Boston",
   "state": "MA",
   "postal_code": 2101,
   "latitude": 42.3601,
   "longitude": -71.0589,
   "legal": true,
   "youth": true,
   "adult": false,
   "housing": true
 },
 {
   "id": 24,
   "name": "Daniel Baker",
   "street_address": "888 Grapefruit Ave",
   "city": "Baltimore",
   "state": "MD",
   "postal_code": 21201,
   "latitude": 39.2904,
   "longitude": -76.6122,
   "legal": true,
   "youth": true,
   "adult": false,
   "housing": true
 },
 {
   "id": 25,
   "name": "Victoria Turner",
   "street_address": "111 Cherry Blossom Rd",
   "city": "Portland",
   "state": "OR",
   "postal_code": 97201,
   "latitude": 45.5051,
   "longitude": -122.675,
   "legal": false,
   "youth": true,
   "adult": false,
   "housing": true
 },
 {
   "id": 26,
   "name": "Aiden Martinez",
   "street_address": "555 Peachtree Blvd",
   "city": "Oklahoma City",
   "state": "OK",
   "postal_code": 73101,
   "latitude": 35.4676,
   "longitude": -97.5164,
   "legal": true,
   "youth": false,
   "adult": true,
   "housing": false
 },
 {
   "id": 27,
   "name": "Avery Wright",
   "street_address": "777 Pineapple St",
   "city": "Las Vegas",
   "state": "NV",
   "postal_code": 89101,
   "latitude": 36.1699,
   "longitude": -115.1398,
   "legal": true,
   "youth": true,
   "adult": false,
   "housing": true
 },
 {
   "id": 28,
   "name": "Chloe Young",
   "street_address": "999 Lemon Ave",
   "city": "Louisville",
   "state": "KY",
   "postal_code": 40201,
   "latitude": 38.2527,
   "longitude": -85.7585,
   "legal": false,
   "youth": true,
   "adult": false,
   "housing": true
 },
 {
   "id": 29,
   "name": "Samuel Hernandez",
   "street_address": "222 Walnut Ln",
   "city": "Milwaukee",
   "state": "WI",
   "postal_code": 53201,
   "latitude": 43.0389,
   "longitude": -87.9065,
   "legal": true,
   "youth": true,
   "adult": false,
   "housing": true
 },
 {
   "id": 30,
   "name": "Lucy Thompson",
   "street_address": "444 Orange Blossom Blvd",
   "city": "Albuquerque",
   "state": "NM",
   "postal_code": 87101,
   "latitude": 35.0844,
   "longitude": -106.6504,
   "legal": false,
   "youth": true,
   "adult": false,
   "housing": true
 },
 {
   "id": 31,
   "name": "Owen White",
   "street_address": "888 Grape St",
   "city": "Tucson",
   "state": "AZ",
   "postal_code": 85701,
   "latitude": 32.2226,
   "longitude": -110.9747,
   "legal": true,
   "youth": false,
   "adult": true,
   "housing": false
 },
 {
   "id": 32,
   "name": "Audrey Davis",
   "street_address": "111 Grapefruit Rd",
   "city": "Fresno",
   "state": "CA",
   "postal_code": 93701,
   "latitude": 36.7372,
   "longitude": -119.7871,
   "legal": true,
   "youth": true,
   "adult": false,
   "housing": true
 },
 {
   "id": 33,
   "name": "Joseph Clark",
   "street_address": "555 Raspberry Ave",
   "city": "Sacramento",
   "state": "CA",
   "postal_code": 95814,
   "latitude": 38.5816,
   "longitude": -121.4944,
   "legal": false,
   "youth": true,
   "adult": false,
   "housing": true
 },
 {
   "id": 34,
   "name": "Charlotte Allen",
   "street_address": "777 Apple St",
   "city": "Long Beach",
   "state": "CA",
   "postal_code": 90801,
   "latitude": 33.7701,
   "longitude": -118.1937,
   "legal": true,
   "youth": true,
   "adult": false,
   "housing": true
 },
 {
   "id": 35,
   "name": "Henry Baker",
   "street_address": "999 Strawberry Blvd",
   "city": "Kansas City",
   "state": "MO",
   "postal_code": 64101,
   "latitude": 39.0997,
   "longitude": -94.5786,
   "legal": true,
   "youth": false,
   "adult": true,
   "housing": false
 },
 {
   "id": 36,
   "name": "Mia Wilson",
   "street_address": "222 Blackberry Ave",
   "city": "Mesa",
   "state": "AZ",
   "postal_code": 85201,
   "latitude": 33.4152,
   "longitude": -111.8315,
   "legal": true,
   "youth": true,
   "adult": false,
   "housing": true
 },
 {
   "id": 37,
   "name": "Amelia Lewis",
   "street_address": "444 Cherry Ln",
   "city": "Virginia Beach",
   "state": "VA",
   "postal_code": 23450,
   "latitude": 36.8529,
   "longitude": -75.978,
   "legal": false,
   "youth": true,
   "adult": true,
   "housing": true
 },
 {
   "id": 38,
   "name": "Elijah Green",
   "street_address": "888 Lemon Rd",
   "city": "Atlanta",
   "state": "GA",
   "postal_code": 30301,
   "latitude": 33.749,
   "longitude": -84.388,
   "legal": true,
   "youth": false,
   "adult": true,
   "housing": false
 },
 {
   "id": 39,
   "name": "Elizabeth King",
   "street_address": "111 Grape Ave",
   "city": "Colorado Springs",
   "state": "CO",
   "postal_code": 80901,
   "latitude": 38.8339,
   "longitude": -104.8214,
   "legal": true,
   "youth": true,
   "adult": false,
   "housing": true
 },
 {
   "id": 40,
   "name": "Sebastian Hall",
   "street_address": "555 Orange Ln",
   "city": "Raleigh",
   "state": "NC",
   "postal_code": 27601,
   "latitude": 35.7796,
   "longitude": -78.6382,
   "legal": false,
   "youth": true,
   "adult": false,
   "housing": true
 },
 {
   "id": 41,
   "name": "Harper Turner",
   "street_address": "777 Cherry Blossom St",
   "city": "Omaha",
   "state": "NE",
   "postal_code": 68101,
   "latitude": 41.2524,
   "longitude": -95.998,
   "legal": true,
   "youth": false,
   "adult": true,
   "housing": false
 },
 {
   "id": 42,
   "name": "Aiden Hill",
   "street_address": "999 Raspberry Rd",
   "city": "Miami Gardens",
   "state": "FL",
   "postal_code": 33014,
   "latitude": 25.942,
   "longitude": -80.2456,
   "legal": true,
   "youth": true,
   "adult": false,
   "housing": true
 },
 {
   "id": 43,
   "name": "Evelyn Hernandez",
   "street_address": "222 Pineapple Ave",
   "city": "Oakland",
   "state": "CA",
   "postal_code": 94601,
   "latitude": 37.8044,
   "longitude": -122.2711,
   "legal": false,
   "youth": true,
   "adult": false,
   "housing": true
 },
 {
   "id": 44,
   "name": "William Scott",
   "street_address": "444 Grape St",
   "city": "Tulsa",
   "state": "OK",
   "postal_code": 74101,
   "latitude": 36.154,
   "longitude": -95.9928,
   "legal": true,
   "youth": true,
   "adult": false,
   "housing": true
 },
 {
   "id": 45,
   "name": "Sophia Allen",
   "street_address": "888 Orange Blossom Ln",
   "city": "Cleveland",
   "state": "OH",
   "postal_code": 44101,
   "latitude": 41.4993,
   "longitude": -81.6944,
   "legal": true,
   "youth": false,
   "adult": true,
   "housing": false
 },
 {
   "id": 46,
   "name": "Liam Baker",
   "street_address": "111 Lemon Blvd",
   "city": "Minneapolis",
   "state": "MN",
   "postal_code": 55401,
   "latitude": 44.9778,
   "longitude": -93.265,
   "legal": false,
   "youth": true,
   "adult": false,
   "housing": true
 },
 {
   "id": 47,
   "name": "Isabella Garcia",
   "street_address": "555 Cherry Blossom Ave",
   "city": "Wichita",
   "state": "KS",
   "postal_code": 67201,
   "latitude": 37.6889,
   "longitude": -97.3361,
   "legal": true,
   "youth": true,
   "adult": false,
   "housing": true
 },
 {
   "id": 48,
   "name": "Ethan Lewis",
   "street_address": "777 Raspberry St",
   "city": "Arlington",
   "state": "TX",
   "postal_code": 76001,
   "latitude": 32.7357,
   "longitude": -97.1081,
   "legal": true,
   "youth": false,
   "adult": true,
   "housing": false
 },
 {
   "id": 49,
   "name": "Ava Johnson",
   "street_address": "999 Strawberry Ln",
   "city": "New Orleans",
   "state": "LA",
   "postal_code": 70112,
   "latitude": 29.9511,
   "longitude": -90.0715,
   "legal": false,
   "youth": true,
   "adult": false,
   "housing": true
 },
 {
   "id": 50,
   "name": "Sophia Clark",
   "street_address": "222 Blackberry Rd",
   "city": "Tampa",
   "state": "FL",
   "postal_code": 33601,
   "latitude": 27.9506,
   "longitude": -82.4572,
   "legal": true,
   "youth": true,
   "adult": false,
   "housing": true
 },
 {
   "id": 51,
   "name": "Noah Walker",
   "street_address": "444 Cherry Blossom Blvd",
   "city": "Honolulu",
   "state": "HI",
   "postal_code": 96813,
   "latitude": 21.3069,
   "longitude": -157.8583,
   "legal": true,
   "youth": true,
   "adult": false,
   "housing": true
 },
 {
   "id": 52,
   "name": "Olivia Moore",
   "street_address": "888 Apple St",
   "city": "Santa Ana",
   "state": "CA",
   "postal_code": 92701,
   "latitude": 33.7455,
   "longitude": -117.8677,
   "legal": true,
   "youth": false,
   "adult": true,
   "housing": false
 },
 {
   "id": 53,
   "name": "Liam Martinez",
   "street_address": "111 Lemon Ave",
   "city": "Anaheim",
   "state": "CA",
   "postal_code": 92801,
   "latitude": 33.8366,
   "longitude": -117.9143,
   "legal": false,
   "youth": true,
   "adult": false,
   "housing": true
 },
 {
   "id": 54,
   "name": "Emma Wright",
   "street_address": "555 Grapefruit Blvd",
   "city": "Cincinnati",
   "state": "OH",
   "postal_code": 45201,
   "latitude": 39.1031,
   "longitude": -84.512,
   "legal": true,
   "youth": true,
   "adult": false,
   "housing": true
 },
 {
   "id": 55,
   "name": "Mason Lee",
   "street_address": "777 Raspberry Ave",
   "city": "Anchorage",
   "state": "AK",
   "postal_code": 99501,
   "latitude": 61.2181,
   "longitude": -149.9003,
   "legal": true,
   "youth": false,
   "adult": true,
   "housing": false
 },
 {
   "id": 56,
   "name": "Harper Hernandez",
   "street_address": "999 Orange Blossom St",
   "city": "Lexington",
   "state": "KY",
   "postal_code": 40502,
   "latitude": 38.0406,
   "longitude": -84.5037,
   "legal": true,
   "youth": true,
   "adult": false,
   "housing": true
 },
 {
   "id": 57,
   "name": "Isabella Turner",
   "street_address": "222 Strawberry Rd",
   "city": "Plano",
   "state": "TX",
   "postal_code": 75023,
   "latitude": 33.0198,
   "longitude": -96.6989,
   "legal": false,
   "youth": true,
   "adult": false,
   "housing": true
 },
 {
   "id": 58,
   "name": "Mia Davis",
   "street_address": "444 Cherry Ln",
   "city": "St. Louis",
   "state": "MO",
   "postal_code": 63101,
   "latitude": 38.627,
   "longitude": -90.1994,
   "legal": true,
   "youth": true,
   "adult": false,
   "housing": true
 },
 {
   "id": 59,
   "name": "James Anderson",
   "street_address": "888 Raspberry Ave",
   "city": "Pittsburgh",
   "state": "PA",
   "postal_code": 15201,
   "latitude": 40.4406,
   "longitude": -79.9959,
   "legal": true,
   "youth": false,
   "adult": true,
   "housing": false
 },
 {
   "id": 60,
   "name": "Alexis Young",
   "street_address": "111 Apple Blvd",
   "city": "Greensboro",
   "state": "NC",
   "postal_code": 27401,
   "latitude": 36.0726,
   "longitude": -79.792,
   "legal": false,
   "youth": true,
   "adult": false,
   "housing": true
 },
 {
   "id": 61,
   "name": "Michael Thompson",
   "street_address": "555 Grapefruit St",
   "city": "Lincoln",
   "state": "NE",
   "postal_code": 68501,
   "latitude": 40.8136,
   "longitude": -96.7026,
   "legal": true,
   "youth": true,
   "adult": false,
   "housing": true
 },
 {
   "id": 62,
   "name": "Sofia Clark",
   "street_address": "777 Orange Blossom Blvd",
   "city": "Orlando",
   "state": "FL",
   "postal_code": 32801,
   "latitude": 28.5383,
   "longitude": -81.3792,
   "legal": true,
   "youth": false,
   "adult": true,
   "housing": false
 },
 {
   "id": 63,
   "name": "Mason Lewis",
   "street_address": "999 Strawberry Ave",
   "city": "Irvine",
   "state": "CA",
   "postal_code": 92602,
   "latitude": 33.6846,
   "longitude": -117.8265,
   "legal": false,
   "youth": true,
   "adult": false,
   "housing": true
 },
 {
   "id": 64,
   "name": "Ella Allen",
   "street_address": "222 Raspberry St",
   "city": "Newark",
   "state": "NJ",
   "postal_code": 7101,
   "latitude": 40.7357,
   "longitude": -74.1724,
   "legal": true,
   "youth": true,
   "adult": false,
   "housing": true
 },
 {
   "id": 65,
   "name": "Liam Brown",
   "street_address": "444 Lemon Ln",
   "city": "Jersey City",
   "state": "NJ",
   "postal_code": 7302,
   "latitude": 40.7178,
   "longitude": -74.0431,
   "legal": true,
   "youth": false,
   "adult": true,
   "housing": false
 },
 {
   "id": 66,
   "name": "Sophia Garcia",
   "street_address": "888 Orange Blossom Rd",
   "city": "Chula Vista",
   "state": "CA",
   "postal_code": 91909,
   "latitude": 32.6401,
   "longitude": -117.0842,
   "legal": true,
   "youth": true,
   "adult": false,
   "housing": true
 },
 {
   "id": 67,
   "name": "Noah Hernandez",
   "street_address": "111 Apple St",
   "city": "Fort Wayne",
   "state": "IN",
   "postal_code": 46802,
   "latitude": 41.0793,
   "longitude": -85.1394,
   "legal": true,
   "youth": true,
   "adult": false,
   "housing": true
 },
 {
   "id": 68,
   "name": "Ava Wilson",
   "street_address": "555 Pineapple Ln",
   "city": "Toledo",
   "state": "OH",
   "postal_code": 43604,
   "latitude": 41.6639,
   "longitude": -83.5822,
   "legal": false,
   "youth": true,
   "adult": false,
   "housing": true
 },
 {
   "id": 69,
   "name": "Oliver Davis",
   "street_address": "777 Cherry Blossom Ave",
   "city": "Chandler",
   "state": "AZ",
   "postal_code": 85224,
   "latitude": 33.3062,
   "longitude": -111.8413,
   "legal": true,
   "youth": false,
   "adult": true,
   "housing": false
 },
 {
   "id": 70,
   "name": "Emily Wilson",
   "street_address": "999 Grapefruit Blvd",
   "city": "St. Petersburg",
   "state": "FL",
   "postal_code": 33701,
   "latitude": 27.7676,
   "longitude": -82.6403,
   "legal": true,
   "youth": true,
   "adult": false,
   "housing": true
 },
 {
   "id": 71,
   "name": "Ethan Clark",
   "street_address": "222 Strawberry Ave",
   "city": "Laredo",
   "state": "TX",
   "postal_code": 78040,
   "latitude": 27.5064,
   "longitude": -99.5075,
   "legal": false,
   "youth": true,
   "adult": false,
   "housing": true
 },
 {
   "id": 72,
   "name": "Emma Turner",
   "street_address": "444 Raspberry Rd",
   "city": "Madison",
   "state": "WI",
   "postal_code": 53703,
   "latitude": 43.0731,
   "longitude": -89.4012,
   "legal": true,
   "youth": true,
   "adult": false,
   "housing": true
 },
 {
   "id": 73,
   "name": "William Brown",
   "street_address": "888 Pineapple St",
   "city": "Durham",
   "state": "NC",
   "postal_code": 27701,
   "latitude": 35.994,
   "longitude": -78.8986,
   "legal": true,
   "youth": false,
   "adult": true,
   "housing": false
 },
 {
   "id": 74,
   "name": "Charlotte Moore",
   "street_address": "111 Lemon Blvd",
   "city": "Lubbock",
   "state": "TX",
   "postal_code": 79401,
   "latitude": 33.5779,
   "longitude": -101.8552,
   "legal": true,
   "youth": true,
   "adult": false,
   "housing": true
 },
 {
   "id": 75,
   "name": "Ava Allen",
   "street_address": "555 Apple Ln",
   "city": "Reno",
   "state": "NV",
   "postal_code": 89501,
   "latitude": 39.5296,
   "longitude": -119.8138,
   "legal": false,
   "youth": true,
   "adult": false,
   "housing": true
 },
 {
   "id": 76,
   "name": "James Hall",
   "street_address": "777 Orange Blossom Ave",
   "city": "Lubbock",
   "state": "TX",
   "postal_code": 79401,
   "latitude": 33.5779,
   "longitude": -101.8552,
   "legal": true,
   "youth": false,
   "adult": true,
   "housing": false
 },
 {
   "id": 77,
   "name": "Oliver Davis",
   "street_address": "999 Raspberry Rd",
   "city": "Modesto",
   "state": "CA",
   "postal_code": 95350,
   "latitude": 37.6391,
   "longitude": -120.9969,
   "legal": true,
   "youth": true,
   "adult": false,
   "housing": true
 },
 {
   "id": 78,
   "name": "Emily Clark",
   "street_address": "222 Cherry Blossom Blvd",
   "city": "Baton Rouge",
   "state": "LA",
   "postal_code": 70801,
   "latitude": 30.4515,
   "longitude": -91.1871,
   "legal": true,
   "youth": false,
   "adult": true,
   "housing": false
 },
 {
   "id": 79,
   "name": "William Moore",
   "street_address": "444 Lemon St",
   "city": "Rochester",
   "state": "NY",
   "postal_code": 14604,
   "latitude": 43.161,
   "longitude": -77.6109,
   "legal": true,
   "youth": true,
   "adult": false,
   "housing": true
 },
 {
   "id": 80,
   "name": "Emma Anderson",
   "street_address": "888 Strawberry Rd",
   "city": "Laredo",
   "state": "TX",
   "postal_code": 78040,
   "latitude": 27.5064,
   "longitude": -99.5075,
   "legal": false,
   "youth": true,
   "adult": false,
   "housing": true
 },
 {
   "id": 81,
   "name": "Liam Lewis",
   "street_address": "111 Raspberry Ave",
   "city": "Akron",
   "state": "OH",
   "postal_code": 44308,
   "latitude": 41.0814,
   "longitude": -81.519,
   "legal": true,
   "youth": true,
   "adult": false,
   "housing": true
 },
 {
   "id": 82,
   "name": "Sophia Wright",
   "street_address": "555 Orange Blossom St",
   "city": "Bridgeport",
   "state": "CT",
   "postal_code": 6601,
   "latitude": 41.1792,
   "longitude": -73.1894,
   "legal": true,
   "youth": false,
   "adult": true,
   "housing": false
 },
 {
   "id": 83,
   "name": "Noah Davis",
   "street_address": "777 Cherry Blossom Ln",
   "city": "Little Rock",
   "state": "AR",
   "postal_code": 72201,
   "latitude": 34.7465,
   "longitude": -92.2896,
   "legal": true,
   "youth": true,
   "adult": false,
   "housing": true
 },
 {
   "id": 84,
   "name": "Ava Hernandez",
   "street_address": "999 Grapefruit Rd",
   "city": "Des Moines",
   "state": "IA",
   "postal_code": 50309,
   "latitude": 41.6005,
   "longitude": -93.6091,
   "legal": true,
   "youth": false,
   "adult": true,
   "housing": false
 },
 {
   "id": 85,
   "name": "Oliver Thompson",
   "street_address": "222 Strawberry St",
   "city": "Salt Lake City",
   "state": "UT",
   "postal_code": 84101,
   "latitude": 40.7608,
   "longitude": -111.891,
   "legal": false,
   "youth": true,
   "adult": false,
   "housing": true
 },
 {
   "id": 86,
   "name": "Emma Clark",
   "street_address": "444 Raspberry Blvd",
   "city": "Huntington Beach",
   "state": "CA",
   "postal_code": 92646,
   "latitude": 33.6603,
   "longitude": -117.9992,
   "legal": true,
   "youth": true,
   "adult": false,
   "housing": true
 },
 {
   "id": 87,
   "name": "James White",
   "street_address": "888 Cherry Ln",
   "city": "Grand Rapids",
   "state": "MI",
   "postal_code": 49503,
   "latitude": 42.9634,
   "longitude": -85.6681,
   "legal": true,
   "youth": false,
   "adult": true,
   "housing": false
 },
 {
   "id": 88,
   "name": "Charlotte Lewis",
   "street_address": "111 Lemon Ave",
   "city": "Montgomery",
   "state": "AL",
   "postal_code": 36101,
   "latitude": 32.3792,
   "longitude": -86.3077,
   "legal": true,
   "youth": true,
   "adult": false,
   "housing": true
 },
 {
   "id": 89,
   "name": "Liam Anderson",
   "street_address": "555 Grapefruit St",
   "city": "Shreveport",
   "state": "LA",
   "postal_code": 71101,
   "latitude": 32.5252,
   "longitude": -93.7502,
   "legal": true,
   "youth": false,
   "adult": true,
   "housing": false
 },
 {
   "id": 90,
   "name": "Olivia Thompson",
   "street_address": "777 Orange Blossom Blvd",
   "city": "Yonkers",
   "state": "NY",
   "postal_code": 10701,
   "latitude": 40.9312,
   "longitude": -73.8987,
   "legal": true,
   "youth": true,
   "adult": false,
   "housing": true
 },
 {
   "id": 91,
   "name": "Noah Martinez",
   "street_address": "999 Apple Ln",
   "city": "Tacoma",
   "state": "WA",
   "postal_code": 98401,
   "latitude": 47.2529,
   "longitude": -122.4443,
   "legal": false,
   "youth": true,
   "adult": false,
   "housing": true
 },
 {
   "id": 92,
   "name": "Sophia Garcia",
   "street_address": "222 Raspberry Rd",
   "city": "Huntington Beach",
   "state": "CA",
   "postal_code": 92646,
   "latitude": 33.6603,
   "longitude": -117.9992,
   "legal": true,
   "youth": true,
   "adult": false,
   "housing": true
 },
 {
   "id": 93,
   "name": "Emma Clark",
   "street_address": "444 Strawberry Ave",
   "city": "Glendale",
   "state": "CA",
   "postal_code": 91201,
   "latitude": 34.1425,
   "longitude": -118.2551,
   "legal": true,
   "youth": false,
   "adult": true,
   "housing": false
 },
 {
   "id": 94,
   "name": "James Davis",
   "street_address": "888 Raspberry St",
   "city": "Scottsdale",
   "state": "AZ",
   "postal_code": 85250,
   "latitude": 33.4942,
   "longitude": -111.9261,
   "legal": true,
   "youth": true,
   "adult": false,
   "housing": true
 },
 {
   "id": 95,
   "name": "Charlotte White",
   "street_address": "111 Orange Blossom Blvd",
   "city": "Orlando",
   "state": "FL",
   "postal_code": 32801,
   "latitude": 28.5383,
   "longitude": -81.3792,
   "legal": true,
   "youth": false,
   "adult": true,
   "housing": false
 },
 {
   "id": 96,
   "name": "Oliver Thompson",
   "street_address": "555 Pineapple Ave",
   "city": "Rochester",
   "state": "NY",
   "postal_code": 14603,
   "latitude": 43.1566,
   "longitude": -77.6068,
   "legal": false,
   "youth": true,
   "adult": false,
   "housing": true
 },
 {
   "id": 97,
   "name": "Liam Hernandez",
   "street_address": "777 Grapefruit Ln",
   "city": "Boise",
   "state": "ID",
   "postal_code": 83701,
   "latitude": 43.615,
   "longitude": -116.2023,
   "legal": true,
   "youth": true,
   "adult": false,
   "housing": true
 },
 {
   "id": 98,
   "name": "Sophia Moore",
   "street_address": "999 Apple Blvd",
   "city": "Spokane",
   "state": "WA",
   "postal_code": 99201,
   "latitude": 47.6588,
   "longitude": -117.426,
   "legal": true,
   "youth": false,
   "adult": true,
   "housing": false
 },
 {
   "id": 99,
   "name": "Emma Wilson",
   "street_address": "222 Raspberry Rd",
   "city": "Montgomery",
   "state": "AL",
   "postal_code": 36101,
   "latitude": 32.3792,
   "longitude": -86.3077,
   "legal": false,
   "youth": true,
   "adult": false,
   "housing": true
 },
 {
   "id": 100,
   "name": "James Anderson",
   "street_address": "444 Strawberry St",
   "city": "Winston-Salem",
   "state": "NC",
   "postal_code": 27101,
   "latitude": 36.0999,
   "longitude": -80.2442,
   "legal": true,
   "youth": true,
   "adult": false,
   "housing": true
 }
]